city,adress,latitude,longitude
Bordeaux,44 Allées de Tourny,44.8442588,-0.5769869
Lille,16 Place du Général de Gaulle,50.6366438,3.0642933
Lyon,40 Quai Rambaud,45.7400189,4.8146341
Marseille,68 Rue de la République,43.300925,5.3702782
Nantes,3 Allée Susan Brownell Anthony,47.2038114,-1.5663658
Paris,43 Avenue de la Grande Armée,48.8753718,2.288924
Strasbourg,3 Quai Jacques-Sturm,48.5874491,7.7495887
Toulouse,1 Place de la Bourse,43.6014641,1.4421328